City,Country,Date,Latitude,Longitude,Max Temperature,Humidity,Cloudiness,Wind Speed
New Norfolk,AU,1616230928,-42.7826,147.0587,63.0,58,0,2.93
Busselton,AU,1616230928,-33.65,115.3333,93.0,24,10,1.99
Noyabrsk,RU,1616230928,63.1994,75.4507,9.57,93,100,23.47
Port Elizabeth,ZA,1616230928,-33.918,25.5701,68.0,94,90,3.44
Punta Arenas,CL,1616230928,-53.15,-70.9167,39.2,81,0,13.8
Morondava,MG,1616230929,-20.2833,44.2833,85.24,71,18,6.51
Ponta do Sol,PT,1616230929,32.6667,-17.1,61.0,57,3,1.99
Cabo San Lucas,MX,1616230929,22.8909,-109.9124,61.0,46,0,4.68
Yar-Sale,RU,1616230929,66.8333,70.8333,-12.26,89,23,12.73
Cidreira,BR,1616230929,-30.1811,-50.2056,72.37,80,38,17.45
Vaini,TO,1616230930,-21.2,-175.2,78.8,94,40,4.61
Tuktoyaktuk,CA,1616230930,69.4541,-133.0374,-15.59,99,78,8.72
Thanh Hoa,VN,1616230711,19.8,105.7667,78.8,79,74,9.8
Tadine,NC,1616230930,-21.55,167.8833,75.63,81,100,17.43
Saint Paul Harbor,US,1616230931,57.79,-152.4072,28.4,86,90,5.75
Klaksvík,FO,1616230931,62.2266,-6.589,42.8,100,75,14.97
Mengcheng,CN,1616230931,33.2579,116.5655,53.46,73,100,7.27
Bredasdorp,ZA,1616230932,-34.5322,20.0403,68.0,77,86,10.36
Peniche,PT,1616230932,39.3558,-9.3811,55.0,39,0,18.01
Hobart,AU,1616230724,-42.8794,147.3294,63.0,63,20,12.66
George Town,MY,1616230932,5.4112,100.3354,91.4,37,20,11.5
Chumikan,RU,1616230932,54.7183,135.315,22.68,82,4,7.63
Tilichiki,RU,1616230933,60.4667,166.1,-13.97,88,9,8.37
Rikitea,PF,1616230933,-23.1203,-134.9692,79.68,78,84,8.43
Beloha,MG,1616230933,-25.1667,45.05,97.05,30,0,1.9
Avila,ES,1616230933,40.5833,-5.0,34.0,71,80,13.0
Dudinka,RU,1616230933,69.4058,86.1778,-22.52,85,0,7.23
Lebu,CL,1616230933,-37.6167,-73.65,55.69,86,100,13.69
Atuona,PF,1616230934,-9.8,-139.0333,79.93,72,86,10.83
Ushuaia,AR,1616230934,-54.8,-68.3,39.2,87,90,23.02
Kapaa,US,1616230934,22.0752,-159.319,71.6,73,90,19.57
Zhireken,RU,1616230934,52.8249,117.3076,24.08,70,99,4.23
Montepuez,MZ,1616230935,-13.1256,38.9997,79.65,76,81,3.67
Chokurdakh,RU,1616230935,70.6333,147.9167,-10.82,97,99,4.63
Victor Harbor,AU,1616230935,-35.5667,138.6167,73.0,63,20,10.54
Amahai,ID,1616230935,-3.3333,128.9167,83.35,77,90,0.89
Saint-Philippe,RE,1616230935,-21.3585,55.7679,86.0,62,0,26.46
Upernavik,GL,1616230936,72.7868,-56.1549,7.36,85,100,12.21
Hilo,US,1616230937,19.7297,-155.09,66.2,88,90,6.91
Tura,IN,1616230937,25.5198,90.2201,94.37,14,0,7.94
Mataura,NZ,1616230937,-46.1927,168.8643,57.0,87,31,7.0
Jackson,US,1616230895,42.4165,-122.8345,37.99,80,48,3.0
Altinópolis,BR,1616230937,-21.0256,-47.3739,71.6,88,0,3.58
Coahuayana Viejo,MX,1616230938,18.7333,-103.6833,71.33,57,0,3.76
Cape Town,ZA,1616230938,-33.9258,18.4232,69.8,56,75,23.02
Port Lincoln,AU,1616230938,-34.7333,135.8667,73.33,59,0,14.47
Vanavara,RU,1616230938,60.34,102.2797,28.17,85,100,15.64
Kailua,US,1616230938,21.4022,-157.7394,71.6,68,20,16.11
Alice Springs,AU,1616230808,-23.7,133.8833,78.8,44,90,9.22
Coyhaique,CL,1616230939,-45.5752,-72.0662,48.0,98,100,7.87
Dhidhdhoo,MV,1616230803,6.8833,73.1,83.88,67,4,8.66
Bengkulu,ID,1616230939,-3.8004,102.2655,82.92,75,81,5.01
Litovko,RU,1616230939,49.2361,135.1742,24.37,95,100,2.89
Hervey Bay,AU,1616230940,-25.2986,152.8535,78.01,82,99,3.0
Tiksi,RU,1616230940,71.6872,128.8694,-25.04,96,15,5.77
Cam Ranh,VN,1616230843,11.9214,109.1591,84.2,74,20,10.36
Kaitangata,NZ,1616230941,-46.2817,169.8464,51.96,94,47,5.06
Husavik,IS,1616230861,66.0449,-17.3389,35.6,60,40,9.22
Ancud,CL,1616230942,-41.8697,-73.8203,52.0,93,0,5.75
Butaritari,KI,1616230942,3.0707,172.7902,81.99,79,9,19.1
Padang,ID,1616230800,-0.9492,100.3543,86.0,70,20,9.22
Kautokeino,NO,1616230943,69.0125,23.0412,23.54,84,39,7.14
Bluff,NZ,1616230943,-46.6,168.3333,57.0,87,37,7.0
Forsytheganj,BY,1616230943,52.6333,29.7333,36.34,49,0,5.41
Narsaq,GL,1616230943,60.9167,-46.05,33.8,80,90,10.36
Dana Point,US,1616230943,33.467,-117.6981,55.0,92,5,6.17
Riacho de Santana,BR,1616230944,-13.6092,-42.9389,66.06,89,23,3.53
Cherskiy,RU,1616230944,68.75,161.3,-21.96,97,0,2.35
Santa Lucía,ES,1616230944,27.9117,-15.5407,63.0,59,40,17.27
Port Hardy,CA,1616230944,50.6996,-127.4199,42.8,93,90,2.3
Iqaluit,CA,1616230944,63.7506,-68.5145,-13.0,70,75,17.27
Matara,LK,1616230945,5.9485,80.5353,85.41,60,38,8.88
Fuyang,CN,1616230899,32.9,115.8167,54.09,69,99,9.64
Torbay,CA,1616230945,47.6666,-52.7314,28.0,93,90,19.57
Zhigansk,RU,1616230945,66.7697,123.3711,11.37,92,100,27.13
Tongchuanshi,CN,1616230945,35.0806,109.0897,50.68,21,100,8.75
Kérouané,GN,1616230946,9.2667,-9.0167,81.23,60,98,3.83
Nelson Bay,AU,1616230946,-32.7167,152.15,69.8,100,90,14.97
Lavrentiya,RU,1616230946,65.5833,-171.0,-10.73,90,92,10.63
Barrow,US,1616230946,71.2906,-156.7887,-18.4,83,1,3.44
Tete,MZ,1616230946,-16.1564,33.5867,87.8,62,75,5.75
Vardø,NO,1616230947,70.3705,31.1107,32.67,80,78,17.87
Albany,US,1616230916,42.6001,-73.9662,28.0,39,0,3.51
Saldanha,ZA,1616230947,-33.0117,17.9442,69.8,56,1,17.27
Norman Wells,CA,1616230947,65.282,-126.8329,-5.8,77,75,13.8
Villalba,PR,1616230947,18.1272,-66.4921,69.01,89,5,1.01
Port Blair,IN,1616230948,11.6667,92.75,87.8,62,20,9.22
Clyde River,CA,1616230948,70.4692,-68.5914,-20.2,69,1,9.22
Egvekinot,RU,1616230948,66.3167,-179.1667,-12.41,75,100,10.56
Solok,ID,1616230948,-0.7918,100.6593,86.0,70,20,9.22
Cap-aux-Meules,CA,1616230948,47.3821,-61.8597,21.2,63,61,16.11
Waterloo,CA,1616230949,43.4668,-80.5164,30.0,86,1,6.4
Ilulissat,GL,1616230949,69.2167,-51.1,14.0,67,40,4.61
Gonder,ET,1616230949,12.6,37.4667,81.16,11,2,9.31
Provideniya,RU,1616230950,64.3833,-173.3,-3.64,88,100,18.37
Verkhoyansk,RU,1616230950,67.5447,133.385,3.33,76,0,3.49
Ormara,PK,1616230950,25.2088,64.6357,78.12,73,0,13.65
Thompson,CA,1616230950,55.7435,-97.8558,37.4,75,75,5.75
Muroto-misakicho,JP,1616230951,33.2833,134.15,60.8,100,75,13.8
Yaan,NG,1616230951,7.3833,8.5667,81.82,63,100,7.52
Mata,PT,1616230951,40.683,-7.4592,48.0,41,0,14.0
Salalah,OM,1616230804,17.0151,54.0924,86.0,54,0,12.66
Celestún,MX,1616230951,20.8667,-90.4,69.06,75,41,11.07
Arman',RU,1616230952,59.7,150.1667,4.19,89,0,2.8
Santa Cruz de la Sierra,BO,1616230952,-17.8,-63.1667,71.6,100,75,4.61
Mar del Plata,AR,1616230952,-38.0023,-57.5575,63.0,82,0,6.91
Carnarvon,AU,1616230952,-24.8667,113.6333,87.8,66,0,13.8
Pevek,RU,1616230953,69.7008,170.3133,-22.09,99,56,0.81
Kloulklubed,PW,1616230953,7.0419,134.2556,82.4,83,90,8.05
San Bartolomé de Tirajana,ES,1616230953,27.9248,-15.5733,63.0,59,40,17.27
Puerto Ayora,EC,1616230954,-0.7393,-90.3518,75.99,97,74,5.03
Port Moresby,PG,1616230803,-9.4431,147.1797,84.2,79,75,11.5
Neuquén,AR,1616230954,-38.9516,-68.0591,51.8,76,0,1.14
Tungor,RU,1616230954,53.3808,142.9564,15.22,80,0,1.99
Kangaatsiaq,GL,1616230954,68.3065,-53.4641,17.62,70,100,4.81
Mezen',RU,1616230955,65.8522,44.24,12.69,89,97,9.78
Abhaynagar,BD,1616230955,23.0129,89.4049,102.36,12,38,9.22
Ribeira Grande,PT,1616230955,38.5167,-28.7,60.8,88,40,14.97
San Patricio,US,1616230955,28.017,-97.5169,55.4,82,1,11.5
Riohacha,CO,1616230955,11.5444,-72.9072,75.22,83,66,9.01
Lüderitz,NA,1616230956,-26.6481,15.1594,74.1,53,17,23.02
Parambu,BR,1616230956,-6.2111,-40.6944,66.78,95,100,0.29
Bubaque,GW,1616230956,11.2833,-15.8333,74.61,58,0,13.73
Labuhan,ID,1616230956,-6.8844,112.2051,86.2,72,62,10.07
Ziro,IN,1616230956,27.6333,93.8333,89.6,43,40,3.44
Hasaki,JP,1616230850,35.7333,140.8333,57.99,88,75,5.75
Adrar,MR,1616230945,20.5022,-10.0711,65.52,28,0,17.6
Longyearbyen,SJ,1616230809,78.2186,15.6401,19.4,68,75,16.11
Hermanus,ZA,1616230958,-34.4187,19.2345,63.0,92,99,3.0
Tasiilaq,GL,1616230958,65.6145,-37.6368,26.6,86,90,9.22
Yārāda,IN,1616230958,17.65,83.2667,91.4,43,40,11.5
Adré,TD,1616230959,13.4667,22.2,98.33,9,2,23.06
Qaanaaq,GL,1616230959,77.484,-69.3632,-6.81,94,100,4.0
San Juan,AR,1616230959,-31.5375,-68.5364,61.59,69,0,4.54
Aksu,CN,1616230878,41.1231,80.2644,53.6,23,12,2.62
Esperance,AU,1616230804,-33.8667,121.9,84.2,39,0,18.41
Nantucket,US,1616230960,41.2835,-70.0995,33.01,65,0,10.47
Bethel,US,1616230960,41.3712,-73.414,30.99,49,0,6.69
Saskylakh,RU,1616230960,71.9167,114.0833,-27.18,98,99,6.87
Xinqing,CN,1616230960,48.2333,129.5,30.25,65,100,6.82
Acaraú,BR,1616230960,-2.8856,-40.12,73.22,94,46,7.11
Abhā,SA,1616230961,18.2164,42.5053,78.8,13,0,9.22
Alofi,NU,1616230961,-19.0595,-169.9187,75.2,100,100,10.36
Ust'-Omchug,RU,1616230961,61.15,149.6333,-10.37,94,0,1.74
East London,ZA,1616230961,-33.0153,27.9116,69.8,88,40,3.44
Metro,ID,1616230961,-5.1131,105.3067,84.15,75,98,3.47
Rach Gia,VN,1616230802,10.0167,105.0833,91.4,58,40,5.75
Marovoay,MG,1616230962,-16.1,46.6333,87.8,58,20,9.22
Bathsheba,BB,1616230962,13.2167,-59.5167,77.0,65,40,16.11
Kavieng,PG,1616230962,-2.5744,150.7967,83.77,75,100,9.35
Bara,NG,1616230962,10.3744,10.7288,84.2,65,88,11.5
Makkah al Mukarramah,SA,1616230800,21.4267,39.8261,97.38,14,0,10.09
Puerto Madryn,AR,1616230963,-42.7692,-65.0385,62.08,51,76,24.87
Toamasina,MG,1616230963,-18.1667,49.3833,84.2,79,40,9.22
Grand Gaube,MU,1616230963,-20.0064,57.6608,84.0,73,43,13.0
Deputatsky,RU,1616230963,69.3,139.9,-6.3,99,100,2.21
North Myrtle Beach,US,1616230964,33.816,-78.68,41.0,56,90,9.22
Mazabuka,ZM,1616230964,-15.856,27.748,77.13,67,14,8.86
Bushehr,IR,1616230964,28.9684,50.8385,73.4,46,0,24.16
Hithadhoo,MV,1616230964,-0.6,73.0833,83.19,72,98,11.01
Nikolskoye,RU,1616230964,59.7035,30.7861,26.01,54,20,15.66
Coquimbo,CL,1616230965,-29.9533,-71.3436,55.4,76,0,3.44
Khatanga,RU,1616230965,71.9667,102.5,-28.28,94,99,8.61
Vaasa,FI,1616230965,63.096,21.6158,37.99,87,0,12.66
Anloga,GH,1616230965,5.7947,0.8973,84.2,74,40,6.91
Broome,US,1616230965,42.2506,-75.833,21.2,53,1,8.05
Shīeli,KZ,1616230966,44.1667,66.75,51.82,51,99,7.09
Jamestown,US,1616230966,42.097,-79.2353,32.0,54,1,0.87
Itarema,BR,1616230966,-2.9248,-39.9167,73.13,94,52,6.64
Lufkin,US,1616230966,31.3382,-94.7291,42.01,93,1,3.67
Fortuna,US,1616230966,40.5982,-124.1573,43.0,100,75,6.91
Arraial do Cabo,BR,1616230966,-22.9661,-42.0278,75.97,89,0,14.85
Ambikāpur,IN,1616230837,23.1167,83.2,93.58,16,4,8.61
Talnakh,RU,1616230967,69.4865,88.3972,-20.36,87,0,1.77
Mount Gambier,AU,1616230967,-37.8333,140.7667,78.8,47,0,17.27
Mayo,US,1616230967,38.8876,-76.5119,39.0,60,1,3.44
Pringsewu,ID,1616230967,-5.3582,104.9744,83.3,76,91,1.14
Poum,NC,1616230968,-20.2333,164.0167,79.27,76,100,20.98
Yenagoa,NG,1616230968,4.9247,6.2642,81.14,78,100,6.8
Beringovskiy,RU,1616230968,63.05,179.3167,-0.51,91,100,17.85
Yellowknife,CA,1616230968,62.456,-114.3525,10.4,85,90,14.97
Souillac,MU,1616230969,-20.5167,57.5167,84.2,70,75,11.5
Luena,AO,1616230969,-11.7833,19.9167,75.2,78,40,3.29
Koungou,YT,1616230969,-12.7336,45.2042,87.8,70,40,8.05
Fairbanks,US,1616230969,64.8378,-147.7164,-8.0,70,1,6.91
Nanortalik,GL,1616230969,60.1432,-45.2371,32.99,98,100,12.77
Itoman,JP,1616230933,26.1247,127.6694,78.8,83,75,9.22
Severo-Kuril'sk,RU,1616230970,50.6789,156.125,25.0,82,100,22.37
Lagoa,PT,1616230970,39.05,-27.9833,58.53,84,100,17.6
Alto Longá,BR,1616230970,-5.2511,-42.2103,70.52,97,100,1.99
Nome,US,1616230970,64.5011,-165.4064,1.4,66,1,14.97
Chernyshevskiy,RU,1616230844,63.0128,112.4714,21.7,93,100,16.11
Leh,IN,1616230971,34.1667,77.5833,35.06,42,0,2.59
Cauquenes,CL,1616230971,-35.9671,-72.3225,45.28,91,23,1.07
Mozarlândia,BR,1616230971,-14.7447,-50.5706,68.79,94,83,2.13
Ucluelet,CA,1616230971,48.9329,-125.5528,42.01,91,99,6.85
Prince Rupert,CA,1616230972,54.3161,-130.3201,37.4,69,75,9.22
Opelika,US,1616230972,32.6454,-85.3783,54.0,71,90,8.05
Port Alfred,ZA,1616230973,-33.5906,26.891,74.98,83,100,3.8
Kirakira,SB,1616230973,-10.4544,161.9205,80.44,79,100,3.18
Severnyy-Kospashskiy,RU,1616230974,59.0925,57.8008,30.0,57,100,1.99
Sīwah,EG,1616230974,29.2041,25.5195,90.54,11,56,13.53
High Rock,BS,1616230974,26.6208,-78.2833,69.8,78,40,10.36
Cururupu,BR,1616230974,-1.8283,-44.8683,70.32,99,97,3.06
Vestmannaeyjar,IS,1616230974,63.4427,-20.2734,39.2,81,75,17.27
Wad Rāwah,SD,1616230975,15.1603,33.1397,99.16,16,0,17.72
Acapulco de Juárez,MX,1616230975,16.8634,-99.8901,73.13,72,0,5.14
Aykhal,RU,1616230975,66.0,111.5,-10.64,95,100,35.14
Qaqortoq,GL,1616230975,60.7167,-46.0333,33.8,80,90,10.36
Casablanca,MA,1616230789,33.5928,-7.6192,53.6,76,20,9.22
Pangnirtung,CA,1616230976,66.1451,-65.7125,-17.95,81,9,1.92
Kristinestad,FI,1616230976,62.2743,21.376,36.82,94,98,9.93
Katsuura,JP,1616230864,35.1333,140.3,63.0,60,47,10.4
Castro,BR,1616230976,-24.7911,-50.0119,60.93,97,98,7.31
La Pila,MX,1616230977,22.05,-100.8667,46.4,71,20,4.61
Bratsk,RU,1616230887,56.1325,101.6142,30.2,43,100,15.66
Byron Bay,AU,1616230702,-28.65,153.6167,71.6,94,75,10.51
Betong,TH,1616230977,5.7743,101.0723,90.75,44,100,3.65
Kieta,PG,1616230977,-6.2167,155.6333,81.18,79,100,2.24
Penzance,GB,1616230978,50.1186,-5.5371,46.99,81,40,3.44
Moses Lake,US,1616230978,47.1301,-119.2781,42.8,56,75,5.75
Tyumentsevo,RU,1616230978,53.3224,81.498,34.34,79,99,10.27
Madingou,CG,1616230978,-4.1536,13.55,78.89,79,100,3.15
Mpika,ZM,1616230978,-11.8343,31.4529,72.25,78,90,7.29
Darhan,MN,1616230979,49.4867,105.9228,28.89,68,7,8.21
Beba,CU,1616230979,22.4437,-79.7253,69.8,94,40,4.61
Whitehorse,CA,1616230979,60.7161,-135.0538,3.99,85,20,6.91
Herne Bay,GB,1616230979,51.373,1.1286,43.0,81,1,8.19
Kumul,CN,1616230956,42.8,93.45,47.1,9,0,4.0
Khonsa,IN,1616230980,27.0167,95.5667,82.62,28,90,4.43
Port Hedland,AU,1616230815,-20.3167,118.5667,78.8,53,90,21.85
Burgersdorp,ZA,1616230980,-30.9977,26.3286,64.6,57,100,15.23
Lima,PE,1616230803,-12.0432,-77.0282,71.01,83,0,5.75
Gambiran,ID,1616230980,-6.7988,111.4951,84.2,73,58,7.31
Kilindoni,TZ,1616230981,-7.9139,39.6668,84.31,67,60,3.2
Karratha,AU,1616230981,-20.7377,116.8463,86.59,42,68,21.5
Belmonte,BR,1616230981,-15.8631,-38.8828,71.6,94,40,3.44
Tuy Hoa,VN,1616230802,13.0833,109.3,82.6,75,0,8.48
Tabou,CI,1616230981,4.423,-7.3528,80.87,76,91,3.62
Pauini,BR,1616230982,-7.7136,-66.9764,72.48,98,100,0.58
Muros,ES,1616230982,42.7762,-9.0603,52.0,54,0,11.99
Portland,US,1616230886,45.5234,-122.6762,46.4,71,90,5.75
Faanui,PF,1616230982,-16.4833,-151.75,83.3,65,36,6.06
Barcelona,ES,1616230982,41.3888,2.159,53.01,57,0,10.36
Pokhara,NP,1616230848,28.2333,83.9833,89.06,11,16,8.66
São Filipe,CV,1616230983,14.8961,-24.4956,71.42,69,83,6.82
Xai-Xai,MZ,1616230983,-25.0519,33.6442,84.45,61,3,8.25
Lorengau,PG,1616230984,-2.0226,147.2712,83.37,71,100,5.77
Havelock,US,1616230984,34.8791,-76.9013,44.01,75,100,5.99
Vanimo,PG,1616230984,-2.6741,141.3028,80.98,83,100,4.54
Okha,RU,1616230888,53.5739,142.9478,15.35,81,0,2.75
Opuwo,NA,1616230984,-18.0607,13.84,77.77,58,87,5.59
Guerrero Negro,MX,1616230985,27.9769,-114.0611,58.41,83,0,9.66
Arlit,NE,1616230985,18.7369,7.3853,91.69,8,17,3.83
Bambous Virieux,MU,1616230985,-20.3428,57.7575,84.2,70,75,11.5
Vitim,RU,1616230985,59.4511,112.5578,23.47,92,100,15.79
Comodoro Rivadavia,AR,1616230986,-45.8667,-67.5,60.8,59,0,3.44
Latung,PH,1616230986,5.5,120.8833,83.53,77,38,6.8
Hua Hin,TH,1616230877,12.5707,99.9588,89.6,70,20,16.11
Airai,TL,1616230986,-8.9266,125.4092,68.23,84,86,2.59
Moerai,PF,1616230987,-22.4333,-151.3333,78.21,67,95,6.51
Shenzhen,CN,1616230764,22.5455,114.0683,80.01,78,0,8.95
Ukiah,US,1616230987,39.1502,-123.2078,41.0,81,40,3.09
Abnūb,EG,1616230988,27.2696,31.1511,78.8,24,0,10.36
Hong Kong,HK,1616230910,22.2855,114.1577,82.4,54,20,6.91
Wamba,NG,1616230989,8.9333,8.6,86.7,48,88,6.06
Terney,RU,1616230989,45.0503,136.6092,30.58,96,100,4.9
Jablah,SY,1616230989,35.3614,35.9256,62.6,48,40,8.05
Gunjur,GM,1616230989,13.2019,-16.7339,66.2,88,0,17.16
Moussoro,TD,1616230989,13.6408,16.4901,98.35,22,23,6.26
Broken Hill,AU,1616230692,-31.95,141.4333,78.8,34,100,13.8
Ürümqi,CN,1616230943,43.801,87.6005,37.4,56,0,4.47
Tigil',RU,1616230991,57.8,158.6667,6.71,96,100,5.61
Codrington,AU,1616230991,-38.2667,141.9667,68.63,61,62,13.87
Flinders,AU,1616230991,-34.5833,150.8552,71.01,95,100,5.99
College,US,1616230991,64.8569,-147.8028,-8.0,70,1,6.91
Zhangye,CN,1616230953,38.9342,100.4517,38.64,19,0,9.01
Kahului,US,1616230992,20.8947,-156.47,69.8,83,40,11.5
Ahipara,NZ,1616230992,-35.1667,173.1667,58.32,79,5,6.35
Yola,NG,1616230992,9.2,12.4833,89.6,58,91,5.75
City of San Pedro,PH,1616230992,14.35,121.0167,93.2,55,20,6.91
Kiruna,SE,1616230992,67.8557,20.2251,35.6,60,40,10.36
Marsh Harbour,BS,1616230993,26.5412,-77.0636,71.91,82,85,10.83
Saurimo,AO,1616230993,-9.6608,20.3916,75.2,78,20,3.42
Yumen,CN,1616230993,40.2833,97.2,39.16,19,0,10.71
Emerald,AU,1616230937,-23.5333,148.1667,86.0,58,75,9.22
Tsimmerbude,RU,1616230993,54.675,20.1347,30.2,55,40,6.71
Cockburn Town,TC,1616230994,21.4612,-71.1419,75.92,78,14,15.66
Nogliki,RU,1616230994,51.8333,143.1667,22.1,76,35,5.61
Atoka,US,1616230994,34.4001,-96.0169,41.0,87,1,8.05
Takoradze,GH,1616230994,4.8845,-1.7554,82.78,72,93,1.43
Kokoda,PG,1616230994,-8.8785,147.7407,76.64,98,100,1.1
Young,UY,1616230995,-32.6833,-57.6333,66.0,84,65,3.0
Rocha,UY,1616230995,-34.4833,-54.3333,57.76,95,90,5.79
Bandarbeyla,SO,1616230995,9.4942,50.8122,82.17,56,0,12.17
Half Moon Bay,US,1616230995,37.4636,-122.4286,48.99,93,75,8.05
Karlstad,SE,1616230996,59.3793,13.5036,35.6,80,99,3.44
Paamiut,GL,1616230996,61.994,-49.6678,28.89,88,41,18.79
Tual,ID,1616230996,-5.6667,132.75,84.6,67,25,5.99
Avarua,CK,1616230996,-21.2078,-159.775,78.8,83,75,6.91
Cabedelo,BR,1616230996,-6.9811,-34.8339,75.2,100,75,4.61
Imphal,IN,1616230891,24.8167,93.95,80.6,39,75,10.36
Menongue,AO,1616230997,-14.6585,17.691,74.44,76,87,5.48
Ostrovnoy,RU,1616230997,68.0531,39.5131,19.36,85,96,25.9
Gafanha da Encarnação,PT,1616230997,40.6181,-8.733,53.01,50,0,5.75
San Quintín,MX,1616230997,30.4833,-115.95,58.91,85,0,14.97
San Miguel,SV,1616230998,13.4833,-88.1833,75.97,61,100,3.0
Pisco,PE,1616230998,-13.7,-76.2167,68.0,77,0,9.22
Gloucester,GB,1616230998,51.8657,-2.2431,46.99,93,90,3.38
Olafsvik,IS,1616230999,64.8945,-23.7142,37.94,77,100,20.11
Leningradskiy,RU,1616230999,69.3833,178.4167,-16.11,87,100,3.56
Gazli,UZ,1616231000,40.1333,63.45,59.52,52,100,5.19
Koster,ZA,1616231000,-25.863,26.8976,71.85,50,41,12.48
Kaukauna,US,1616231000,44.278,-88.272,33.01,43,1,4.61
Inírida,CO,1616231000,3.8653,-67.9239,72.43,94,98,1.5
Rockport,US,1616231001,28.0206,-97.0544,57.0,82,1,9.22
Araouane,ML,1616231001,18.9048,-3.5265,81.75,8,0,11.72
Galveston,US,1616231001,29.3669,-94.9669,54.0,62,1,11.5
Carndonagh,IE,1616231001,55.25,-7.2667,47.75,93,100,4.7
Mil'kovo,RU,1616231001,54.7167,158.6167,20.95,79,90,6.11
Constitución,CL,1616231002,-35.3333,-72.4167,53.22,83,15,7.16
Dikson,RU,1616231002,73.5069,80.5464,-20.58,89,100,18.68
Burnie,AU,1616230782,-41.0667,145.9167,60.01,79,1,4.0
‘Ewa Beach,US,1616231002,21.3156,-158.0072,71.6,68,1,5.75
Ishigaki,JP,1616230849,24.3448,124.1572,77.0,78,40,9.22
Avera,US,1616231003,33.194,-82.5271,44.6,53,90,16.11
Bima,ID,1616231003,-8.4667,118.7167,83.12,88,77,2.15
Mtwara,TZ,1616231003,-10.2667,40.1833,80.6,89,75,8.05
Powell,US,1616231003,40.1578,-83.0752,28.99,59,1,3.44
Marsá Maţrūḩ,EG,1616231003,31.3525,27.2453,64.4,68,0,25.32
Lompoc,US,1616231003,34.6391,-120.4579,51.8,87,40,5.75
Rawson,AR,1616231004,-43.3002,-65.1023,62.47,50,93,24.36
Morón,AR,1616231004,-34.6534,-58.6198,64.99,97,100,1.99
Viedma,AR,1616231004,-40.8135,-62.9967,62.89,61,0,11.79
Geraldton,AU,1616230771,-28.7667,114.6,95.0,15,76,14.97
Sanguéya,GN,1616231004,10.7,-14.3667,78.19,51,12,2.08
São João da Barra,BR,1616231005,-21.6403,-41.0511,74.05,91,0,6.76
Loa Janan,ID,1616231005,-0.583,117.095,82.71,89,100,2.48
Kostanay,KZ,1616231005,53.1667,63.5833,32.0,93,90,15.66
Margate,GB,1616231005,51.3813,1.3862,44.01,71,11,4.0
Waipawa,NZ,1616231006,-41.4122,175.5153,59.0,77,90,12.66
Eucaliptus,BO,1616231006,-17.5833,-67.5167,43.3,83,100,11.21
Kiryat Gat,IL,1616231006,31.61,34.7642,73.99,41,9,3.0
Stokmarknes,NO,1616231006,68.5646,14.9108,39.0,88,100,13.0
Khandyga,RU,1616231006,62.6667,135.6,16.56,96,100,3.74
Aleksandrov Gay,RU,1616231007,50.147,48.5704,29.12,86,100,12.41
Nchelenge,ZM,1616231007,-9.3451,28.734,77.77,65,68,7.0
Verkhniy Fiagdon,RU,1616231008,42.8333,44.3053,46.4,61,75,8.95
Ligaya,PH,1616231008,12.6599,120.8923,85.24,71,56,5.23
Aklavik,CA,1616231008,68.2191,-135.0107,-13.0,84,13,3.44
Kempele,FI,1616231008,64.9131,25.5034,34.0,80,0,5.75
Green River,US,1616231009,41.5286,-109.4662,42.8,42,1,11.5
San Francisco,US,1616230725,37.7749,-122.4194,51.01,81,20,12.66
Grand-Santi,GF,1616231009,4.25,-54.3833,67.86,99,100,1.34
Maputo,MZ,1616231009,-25.9653,32.5892,82.0,78,75,6.91
Kenai,US,1616231009,60.5544,-151.2583,12.99,71,20,4.61
Savannakhet,LA,1616231010,16.566,104.751,98.6,39,40,2.3
Praia,CV,1616231010,14.9215,-23.5087,69.8,73,20,14.97
Caniço,PT,1616231010,32.6333,-16.85,60.8,63,75,10.36
Tuatapere,NZ,1616231010,-46.1333,167.6833,57.0,87,59,7.0
São Geraldo do Araguaia,BR,1616231010,-6.4006,-48.555,69.64,98,100,1.88
Mahébourg,MU,1616231011,-20.4081,57.7,84.2,70,75,11.5
Praia da Vitória,PT,1616231011,38.7333,-27.0667,57.99,82,40,13.31
Nakambala,ZM,1616231011,-15.8324,27.7799,77.5,67,17,8.88
Río Gallegos,AR,1616231011,-51.6226,-69.2181,39.2,75,0,11.5
Edgewater,US,1616231011,28.9889,-80.9023,61.0,77,90,16.11
Ixtapa,MX,1616231012,20.7,-105.2,66.0,82,0,2.86
Necochea,AR,1616231012,-38.5473,-58.7368,59.0,83,100,4.0
Dawei,MM,1616231012,14.0833,98.2,91.69,42,3,9.78
Sola,VU,1616231013,-13.8833,167.55,82.42,76,98,11.27
Vila Franca do Campo,PT,1616231013,37.7167,-25.4333,55.4,76,20,5.75
Kumylzhenskaya,RU,1616231013,49.8809,42.5898,37.0,73,86,7.0
Senanga,ZM,1616231013,-16.1167,23.2667,82.51,49,0,9.42
Ballina,AU,1616231014,-28.8667,153.5667,71.6,94,75,11.48
Oodweyne,SO,1616231014,9.4092,45.064,85.41,23,0,4.25
Kruisfontein,ZA,1616231014,-34.0033,24.7314,70.0,79,88,1.01
Kutum,SD,1616231014,14.2,24.6667,91.58,10,34,19.69
Saint George,US,1616231014,37.1041,-113.5841,60.8,27,1,12.66
Dicabisagan,PH,1616231015,17.0818,122.4157,80.98,82,82,5.28
Bilibino,RU,1616231015,68.0546,166.4372,-20.34,77,0,1.12
Mikuni,JP,1616231015,36.2171,136.1519,58.53,73,100,10.96
Hamilton,US,1616231015,39.1834,-84.5333,32.0,74,1,4.61
Maun,BW,1616231015,-19.9833,23.4167,80.6,65,0,4.61
Contai,IN,1616231016,21.7786,87.7536,91.9,32,30,13.51
Krasnosel'kup,RU,1616231016,65.7,82.4667,-7.15,82,12,11.68
Ténenkou,ML,1616231016,14.4572,-4.9169,93.7,8,46,12.28
Saint-Pierre,RE,1616231017,-21.3393,55.4781,86.0,62,0,26.46
Altayskoye,RU,1616231017,51.9533,85.3325,40.5,94,40,4.76
Copiapó,CL,1616231017,-27.3667,-70.3333,55.4,82,3,0.54
Batemans Bay,AU,1616231017,-35.7167,150.1833,66.0,96,100,10.98
Ust-Tsilma,RU,1616231017,65.441,52.1498,11.7,82,98,1.03
Barra de Tecoanapa,MX,1616231018,16.5167,-98.75,73.02,73,0,3.58
Ludwigslust,DE,1616231018,53.3167,11.5,35.01,63,88,9.53
Iquique,CL,1616231018,-20.2208,-70.1431,68.0,64,0,14.97
Bangassou,CF,1616231018,4.7413,22.8184,87.46,55,94,1.99
Srednekolymsk,RU,1616231018,67.45,153.6833,-11.04,87,3,2.77
Saint Anthony,US,1616231019,45.0205,-93.218,37.99,64,1,5.75
Karatau,KZ,1616231019,43.1667,70.4667,49.68,96,100,10.22
Palmas,BR,1616231019,-10.2128,-48.3603,71.6,100,75,5.75
Algiers,DZ,1616230872,36.7525,3.042,48.2,93,75,4.61
Atikokan,CA,1616231019,48.7555,-91.6216,31.28,75,0,7.81
Tal'menka,RU,1616231020,53.8183,83.5677,37.4,48,0,4.47
Tautira,PF,1616231020,-17.7333,-149.15,78.8,73,0,5.75
Makakilo City,US,1616231020,21.3469,-158.0858,71.6,68,1,5.75
Touros,BR,1616231020,-5.1989,-35.4608,75.2,94,75,4.61
Anadyr,RU,1616231020,64.75,177.4833,-5.01,71,0,11.18
Carutapera,BR,1616231021,-1.195,-46.02,71.65,97,100,5.39
Assiut,EG,1616231021,27.181,31.1837,78.8,24,0,10.36
Omboué,GA,1616231021,-1.5746,9.2618,81.63,76,100,3.04
Mbandaka,CD,1616231021,0.0487,18.2603,72.37,95,100,4.88
La Ronge,CA,1616231021,55.1001,-105.2842,39.2,65,11,4.61
Villanueva,HN,1616230873,15.3167,-88.0,75.0,90,45,1.83
Hermagor,AT,1616231022,46.6272,13.3672,41.0,74,20,5.75
Buraidah,SA,1616230875,26.326,43.975,77.0,29,0,11.5
Manggar,ID,1616231022,-2.8833,108.2667,83.7,76,90,6.44
Okhotsk,RU,1616231022,59.3833,143.3,8.46,79,26,3.58
Yulara,AU,1616231023,-25.2406,130.9889,66.2,82,90,12.66
Srīvardhan,IN,1616231023,18.0333,73.0167,85.41,54,0,17.98
Moyobamba,PE,1616231023,-6.05,-76.9667,66.33,99,100,0.02
Nhulunbuy,AU,1616231023,-12.2333,136.7667,80.6,83,73,5.75
Nacala,MZ,1616231023,-14.5428,40.6728,84.2,70,75,4.61
Qingdao,CN,1616230865,36.0986,120.3719,46.99,71,75,8.95
Raja,SS,1616231024,8.4596,25.678,102.65,26,22,1.7
Gaza,PS,1616231024,31.5,34.4667,73.99,41,15,3.0
Tallahassee,US,1616230938,30.4383,-84.2807,55.4,76,90,11.5
Tagusao,PH,1616231025,9.1924,117.8141,82.89,81,70,9.66
Otane,NZ,1616231025,-39.8833,176.6333,60.01,68,97,3.0
Cayenne,GF,1616231025,4.9333,-52.3333,79.0,100,40,5.53
Dingle,PH,1616231025,10.9995,122.6711,84.56,68,75,9.1
Pangkalanbuun,ID,1616231026,-2.6833,111.6167,82.81,84,100,2.73
Korla,CN,1616230969,41.7597,86.1469,48.7,37,36,6.04
Valparaíso,CL,1616231026,-33.0393,-71.6273,50.0,87,0,3.44
Urbino,IT,1616231026,43.7298,12.6356,48.0,68,100,8.01
Rio Grande,BR,1616231026,-32.035,-52.0986,71.01,91,50,17.83
Haines Junction,CA,1616231027,60.7522,-137.5108,-4.0,71,3,1.14
Ituberá,BR,1616231027,-13.7322,-39.1492,70.72,96,46,3.27
Lere,NG,1616231027,10.387,8.5726,86.36,40,84,7.45
Susanville,US,1616231027,40.4163,-120.653,35.6,87,90,6.91
Slave Lake,CA,1616231027,55.2834,-114.769,28.4,86,1,2.3
Powell River,CA,1616231028,49.8496,-124.5361,42.8,93,90,4.61
Sivaki,RU,1616231028,52.6333,126.75,23.52,86,37,2.44
Spasskoye,RU,1616231028,44.6108,132.7969,33.12,97,100,5.46
Lobito,AO,1616231028,-12.3481,13.5456,83.35,69,99,6.35
Türkan,AZ,1616231028,40.3639,50.215,51.8,71,0,16.11
Santa Rosa,PH,1616230828,14.3122,121.1114,93.2,55,20,6.91
Sharan,RU,1616231029,54.8167,54.0,28.09,92,100,16.11
Atar,MR,1616231029,20.5169,-13.0499,69.33,26,0,17.67
Mahenge,TZ,1616231029,-8.6833,36.7167,74.03,83,34,3.42
Khomeyn,IR,1616231029,33.6423,50.0789,51.8,40,0,16.2
Aljezur,PT,1616231029,37.3191,-8.8033,52.29,48,0,15.41
Sumenep,ID,1616231030,-7.0167,113.8667,84.58,74,99,6.78
Alcañiz,ES,1616231030,41.05,-0.1333,42.01,87,34,11.01
Karwar,IN,1616231030,14.8,74.1333,87.55,56,1,10.11
Caborca,MX,1616231030,30.5838,-111.101,55.0,27,0,3.0
Buala,SB,1616231030,-8.145,159.5921,81.09,78,90,2.66
Panlaitan,PH,1616231031,12.1191,119.8486,84.29,69,25,1.05
Luwuk,ID,1616231031,-0.9516,122.7875,84.34,82,86,1.25
Mount Isa,AU,1616230804,-20.7333,139.5,75.2,100,90,10.36
Ponta Delgada,PT,1616230808,37.7333,-25.6667,55.4,76,20,5.75
Pozoblanco,ES,1616231031,38.3791,-4.8483,50.0,46,0,16.11
Virden,US,1616231032,39.5009,-89.7679,35.01,78,0,3.0
Mitsamiouli,KM,1616231032,-11.3847,43.2844,84.52,71,84,4.85
Río Cuarto,AR,1616231032,-33.1307,-64.3499,59.0,95,98,5.01
Reshetylivka,UA,1616231032,49.565,34.0782,33.94,98,100,4.88
Zyryanka,RU,1616231032,65.75,150.85,-4.86,86,0,8.75
Bilyayivka,UA,1616231033,46.4832,30.2168,41.0,60,75,13.42
Moura,PT,1616231033,38.1401,-7.4486,46.4,53,0,13.8
Fare,PF,1616231033,-16.7,-151.0167,82.89,64,33,4.52
Ørnes,NO,1616231033,66.8689,13.7078,37.4,87,75,12.66
Douglas,US,1616231033,41.3,-96.167,37.99,69,1,9.22
Dakar,SN,1616231034,14.6937,-17.4441,66.2,94,0,6.91
Kodarmā,IN,1616231034,24.4667,85.6,95.81,16,17,13.35
Hofn,IS,1616231034,64.2539,-15.2082,38.07,48,0,13.04
Dzhebariki-Khaya,RU,1616231034,62.2167,135.8,16.32,95,100,4.81
Madang,PG,1616230927,-5.2246,145.7966,80.46,79,99,3.22
Silvassa,IN,1616231034,20.2667,73.0167,97.05,19,0,11.68
Xam Nua,LA,1616231035,20.4197,104.0439,83.21,49,91,2.71
Hirado,JP,1616231035,33.3597,129.5531,63.0,94,75,10.36
Hammerfest,NO,1616231035,70.6634,23.6821,32.0,86,75,16.11
Bud,US,1616231035,39.447,-86.1758,30.0,76,0,6.22
Brigantine,US,1616231035,39.4101,-74.3646,33.01,59,1,3.44
Caravelas,BR,1616231036,-17.7125,-39.2481,73.04,91,3,1.07
Dingli,MT,1616231036,35.8614,14.3822,62.6,82,75,11.5
San Cristobal,VE,1616231037,7.7669,-72.225,65.32,92,100,2.35
Laguna,US,1616231037,38.421,-121.4238,45.0,87,1,4.61
Namatanai,PG,1616231037,-3.6667,152.4333,81.82,75,100,7.9
Tazmalt,DZ,1616231037,36.3868,4.3989,47.79,81,85,4.76
Sinnamary,GF,1616231037,5.3833,-52.95,75.76,86,98,7.78
Custoias,PT,1616231038,41.1053,-7.321,45.0,65,0,8.99
Chui,UY,1616231038,-33.6971,-53.4616,64.11,92,18,8.41
Amga,RU,1616231038,60.8953,131.9608,21.9,91,100,4.16
Lafiagi,NG,1616231038,8.8667,5.4167,86.34,54,90,4.94
Bontang,ID,1616231038,0.1333,117.5,84.52,70,83,6.24
Flin Flon,CA,1616231039,54.7682,-101.865,35.24,97,81,7.94
Naviraí,BR,1616231039,-23.065,-54.1906,69.46,97,93,7.67
Naze,JP,1616230886,28.3667,129.4833,71.6,94,75,13.8
Mvuma,ZW,1616231039,-19.2792,30.5283,77.36,42,0,7.36
Igarka,RU,1616231039,67.4667,86.5833,-13.79,81,0,10.54
Emba,KZ,1616231040,48.8264,58.1442,30.74,92,100,24.63
Ekhabi,RU,1616231040,53.5102,142.9671,14.67,81,0,2.17
Jalu,LY,1616231040,29.0331,21.5482,87.89,12,0,9.44
Cachoeiras de Macacu,BR,1616231040,-22.4625,-42.6531,68.74,90,0,3.2
Tcholliré,CM,1616231040,8.4022,14.1698,95.92,31,74,4.79
Lethem,GY,1616231041,3.3803,-59.7968,73.87,72,18,10.76
Mama,RU,1616231041,58.3106,112.8986,25.72,91,100,18.32
La Asuncion,VE,1616231041,11.0333,-63.8628,74.14,87,34,11.86
Ulladulla,AU,1616231041,-35.35,150.4667,68.0,100,75,12.66
Rørvik,NO,1616231041,64.8621,11.2373,42.8,100,90,32.21
Erzin,TR,1616231042,36.9559,36.2,62.01,68,100,4.16
Mwinilunga,ZM,1616231042,-11.7358,24.4293,75.85,69,13,5.17
Acajutla,SV,1616231042,13.5928,-89.8275,80.26,56,29,6.93
Nongstoin,IN,1616231042,25.5167,91.2667,78.44,23,69,8.59
Vigrestad,NO,1616231042,58.5667,5.7,42.01,98,84,18.45
Dutlwe,BW,1616231043,-23.9833,23.9,84.7,29,6,11.54
San Isidro,PE,1616231043,-12.1167,-77.05,69.8,83,0,4.61
Chapais,CA,1616231043,49.7834,-74.8492,24.8,68,1,8.05
Staryy Nadym,RU,1616231043,65.6118,72.6842,-4.81,82,81,16.98
Melioratorov,RU,1616231044,57.2107,65.6077,32.0,80,90,2.24
Pacific Grove,US,1616231044,36.6177,-121.9166,51.8,82,90,3.44
Dawlatabad,AF,1616231044,36.4141,64.9053,59.7,80,100,15.12
Chirongui,YT,1616231044,-12.9319,45.1483,87.8,70,40,8.05
Sorong,ID,1616231044,-0.8833,131.25,84.25,72,99,6.46
Vila Velha,BR,1616231044,-20.3297,-40.2925,71.6,94,20,1.14
Maţāy,EG,1616231045,28.419,30.7792,86.58,13,17,9.42
Porto-Novo,BJ,1616230806,6.4965,2.6036,84.2,79,40,8.05
Akhnūr,IN,1616230817,32.8667,74.7333,84.2,30,40,4.61
Atlantic City,US,1616231046,39.3643,-74.4229,33.01,59,1,3.44
Vallenar,CL,1616231046,-28.5708,-70.7581,52.09,89,0,0.78
Belyy,RU,1616231046,55.8402,32.9419,30.18,69,50,4.74
Olinda,BR,1616231047,-8.0089,-34.8553,75.2,83,40,4.61
Marawi,PH,1616231047,7.9986,124.2928,82.99,85,100,5.99
Borovoy,RU,1616231047,55.4333,86.0833,33.8,55,0,8.95
Sherbakul',RU,1616231047,54.6316,72.3963,30.2,86,75,8.95
Miramar,US,1616231048,25.9873,-80.2323,59.0,82,75,9.22
Nehe,CN,1616231028,48.4833,124.8333,38.21,46,100,12.28
Germersheim,DE,1616231048,49.2231,8.3639,41.0,50,61,1.01
Qasigiannguit,GL,1616231049,68.8193,-51.1922,14.0,67,40,4.61
Mpulungu,ZM,1616231049,-8.7623,31.1141,82.53,59,45,3.56
Temirtau,KZ,1616231049,50.0544,72.9483,32.0,86,75,15.66
Hobyo,SO,1616231049,5.3505,48.5268,85.06,62,50,17.22
Kandrian,PG,1616231049,-6.2167,149.55,81.52,80,100,5.35
Tiznit Province,MA,1616231050,29.5833,-9.5,53.11,59,17,12.44
Khovd,MN,1616231050,48.0056,91.6419,33.15,18,0,5.82
Dickinson,US,1616231051,29.4608,-95.0513,53.01,76,1,8.52
Antofagasta,CL,1616231051,-23.65,-70.4,60.8,88,0,3.44
Heusden,BE,1616231051,51.0366,5.2801,39.99,65,75,4.61
Gladstone,AU,1616230806,-23.85,151.25,80.6,74,79,13.8
Samarai,PG,1616231051,-10.6167,150.6667,83.77,74,32,6.51
Sept-Îles,CA,1616231052,50.2001,-66.3821,15.01,61,90,4.61
Waterfoot,GB,1616231052,53.6929,-2.2525,48.0,92,99,5.14
Faya,SA,1616231052,18.3851,42.4509,78.8,13,0,9.22
Cap Malheureux,MU,1616231053,-19.9842,57.6142,82.99,76,39,11.99
Kouroussa,GN,1616231053,10.65,-9.8833,85.12,37,96,4.9
Shingū,JP,1616231053,33.7333,135.9833,64.4,63,75,14.97
Nara,JP,1616231053,34.6851,135.8049,68.0,37,75,8.05
Salinas,US,1616231054,36.6777,-121.6555,51.8,81,1,4.61
Fethiye,TR,1616231054,36.6217,29.1164,59.0,82,75,4.61
Ilebo,CD,1616231054,-4.3167,20.5833,87.53,63,100,2.04
Awjilah,LY,1616231054,29.1081,21.2869,87.06,12,0,9.78
San Lucas,MX,1616231054,16.6,-92.7167,62.74,89,25,1.99
Shaunavon,CA,1616231055,49.6501,-108.4181,33.8,69,100,13.8
Khani,GE,1616231055,41.9563,42.9566,50.0,66,90,12.66
Grajaú,BR,1616231055,-5.8194,-46.1386,70.0,99,94,3.36
Guasdualito,VE,1616231055,7.2424,-70.7324,75.36,70,100,2.35
Qarqīn,AF,1616231055,37.4185,66.0436,59.4,83,100,21.54
Naliya,IN,1616231056,23.2667,68.8333,97.74,17,0,12.44
